{"MRData":{"xmlns":"http:\/\/ergast.com\/mrd\/1.4","series":"f1","url":"http://ergast.com/api/f1/1968/circuits.json","limit":"30","offset":"0","total":"12","CircuitTable":{"season":"1968","Circuits":[{"circuitId":"brands_hatch","url":"http:\/\/en.wikipedia.org\/wiki\/Brands_Hatch","circuitName":"Brands Hatch","Location":{"lat":"51.3569","long":"0.263056","locality":"Kent","country":"UK"}},{"circuitId":"essarts","url":"http:\/\/en.wikipedia.org\/wiki\/Rouen-Les-Essarts","circuitName":"Rouen-Les-Essarts","Location":{"lat":"49.3306","long":"1.00458","locality":"Rouen","country":"France"}},{"circuitId":"jarama","url":"http:\/\/en.wikipedia.org\/wiki\/Circuito_Permanente_Del_Jarama","circuitName":"Jarama","Location":{"lat":"40.6171","long":"-3.58558","locality":"Madrid","country":"Spain"}},{"circuitId":"kyalami","url":"http:\/\/en.wikipedia.org\/wiki\/Kyalami","circuitName":"Kyalami","Location":{"lat":"-25.9894","long":"28.0767","locality":"Midrand","country":"South Africa"}},{"circuitId":"monaco","url":"http:\/\/en.wikipedia.org\/wiki\/Circuit_de_Monaco","circuitName":"Circuit de Monaco","Location":{"lat":"43.7347","long":"7.42056","locality":"Monte-Carlo","country":"Monaco"}},{"circuitId":"monza","url":"http:\/\/en.wikipedia.org\/wiki\/Autodromo_Nazionale_Monza","circuitName":"Autodromo Nazionale di Monza","Location":{"lat":"45.6156","long":"9.28111","locality":"Monza","country":"Italy"}},{"circuitId":"nurburgring","url":"http:\/\/en.wikipedia.org\/wiki\/N%C3%BCrburgring","circuitName":"Nürburgring","Location":{"lat":"50.3356","long":"6.9475","locality":"Nürburg","country":"Germany"}},{"circuitId":"rodriguez","url":"http:\/\/en.wikipedia.org\/wiki\/Aut%C3%B3dromo_Hermanos_Rodr%C3%ADguez","circuitName":"Autódromo Hermanos Rodríguez","Location":{"lat":"19.4042","long":"-99.0907","locality":"Mexico City","country":"Mexico"}},{"circuitId":"spa","url":"http:\/\/en.wikipedia.org\/wiki\/Circuit_de_Spa-Francorchamps","circuitName":"Circuit de Spa-Francorchamps","Location":{"lat":"50.4372","long":"5.97139","locality":"Spa","country":"Belgium"}},{"circuitId":"tremblant","url":"http:\/\/en.wikipedia.org\/wiki\/Circuit_Mont-Tremblant","circuitName":"Circuit Mont-Tremblant","Location":{"lat":"46.1877","long":"-74.6099","locality":"Quebec","country":"Canada"}},{"circuitId":"watkins_glen","url":"http:\/\/en.wikipedia.org\/wiki\/Watkins_Glen_International","circuitName":"Watkins Glen","Location":{"lat":"42.3369","long":"-76.9272","locality":"New York State","country":"USA"}},{"circuitId":"zandvoort","url":"http:\/\/en.wikipedia.org\/wiki\/Circuit_Zandvoort","circuitName":"Circuit Park Zandvoort","Location":{"lat":"52.3888","long":"4.54092","locality":"Zandvoort","country":"Netherlands"}}]}}}