{"MRData":{"xmlns":"http:\/\/ergast.com\/mrd\/1.4","series":"f1","url":"http://ergast.com/api/f1/1981/circuits.json","limit":"30","offset":"0","total":"15","CircuitTable":{"season":"1981","Circuits":[{"circuitId":"dijon","url":"http:\/\/en.wikipedia.org\/wiki\/Dijon-Prenois","circuitName":"Dijon-Prenois","Location":{"lat":"47.3625","long":"4.89913","locality":"Dijon","country":"France"}},{"circuitId":"galvez","url":"http:\/\/en.wikipedia.org\/wiki\/Aut%C3%B3dromo_Oscar_Alfredo_G%C3%A1lvez","circuitName":"Autódromo Juan y Oscar Gálvez","Location":{"lat":"-34.6943","long":"-58.4593","locality":"Buenos Aires","country":"Argentina"}},{"circuitId":"hockenheimring","url":"http:\/\/en.wikipedia.org\/wiki\/Hockenheimring","circuitName":"Hockenheimring","Location":{"lat":"49.3278","long":"8.56583","locality":"Hockenheim","country":"Germany"}},{"circuitId":"imola","url":"http:\/\/en.wikipedia.org\/wiki\/Autodromo_Enzo_e_Dino_Ferrari","circuitName":"Autodromo Enzo e Dino Ferrari","Location":{"lat":"44.3439","long":"11.7167","locality":"Imola","country":"Italy"}},{"circuitId":"jacarepagua","url":"http:\/\/en.wikipedia.org\/wiki\/Aut%C3%B3dromo_Internacional_Nelson_Piquet","circuitName":"Autódromo Internacional Nelson Piquet","Location":{"lat":"-22.9756","long":"-43.395","locality":"Rio de Janeiro","country":"Brazil"}},{"circuitId":"jarama","url":"http:\/\/en.wikipedia.org\/wiki\/Circuito_Permanente_Del_Jarama","circuitName":"Jarama","Location":{"lat":"40.6171","long":"-3.58558","locality":"Madrid","country":"Spain"}},{"circuitId":"las_vegas","url":"http:\/\/en.wikipedia.org\/wiki\/Las_Vegas,_Nevada","circuitName":"Las Vegas Street Circuit","Location":{"lat":"36.1162","long":"-115.174","locality":"Nevada","country":"USA"}},{"circuitId":"long_beach","url":"http:\/\/en.wikipedia.org\/wiki\/Long_Beach,_California","circuitName":"Long Beach","Location":{"lat":"33.7651","long":"-118.189","locality":"California","country":"USA"}},{"circuitId":"monaco","url":"http:\/\/en.wikipedia.org\/wiki\/Circuit_de_Monaco","circuitName":"Circuit de Monaco","Location":{"lat":"43.7347","long":"7.42056","locality":"Monte-Carlo","country":"Monaco"}},{"circuitId":"monza","url":"http:\/\/en.wikipedia.org\/wiki\/Autodromo_Nazionale_Monza","circuitName":"Autodromo Nazionale di Monza","Location":{"lat":"45.6156","long":"9.28111","locality":"Monza","country":"Italy"}},{"circuitId":"osterreichring","url":"http:\/\/en.wikipedia.org\/wiki\/A1-Ring","circuitName":"A1-Ring","Location":{"lat":"47.2197","long":"14.7647","locality":"Spielburg","country":"Austria"}},{"circuitId":"silverstone","url":"http:\/\/en.wikipedia.org\/wiki\/Silverstone_Circuit","circuitName":"Silverstone Circuit","Location":{"lat":"52.0786","long":"-1.01694","locality":"Silverstone","country":"UK"}},{"circuitId":"villeneuve","url":"http:\/\/en.wikipedia.org\/wiki\/Circuit_Gilles_Villeneuve","circuitName":"Circuit Gilles Villeneuve","Location":{"lat":"45.5","long":"-73.5228","locality":"Montreal","country":"Canada"}},{"circuitId":"zandvoort","url":"http:\/\/en.wikipedia.org\/wiki\/Circuit_Zandvoort","circuitName":"Circuit Park Zandvoort","Location":{"lat":"52.3888","long":"4.54092","locality":"Zandvoort","country":"Netherlands"}},{"circuitId":"zolder","url":"http:\/\/en.wikipedia.org\/wiki\/Zolder","circuitName":"Zolder","Location":{"lat":"50.9894","long":"5.25694","locality":"Heusden-Zolder","country":"Belgium"}}]}}}